{
  "cbsa_code": "19740",
  "cbsa_name": "Denver-Aurora-Centennial, CO",
  "mdi": 0.3654,
  "bbox": [
    -107.5,
    37.52,
    -102.44,
    41.82
  ],
  "hospitals": [
    {
      "facility_id": "060024",
      "name": "UNIVERSITY OF COLORADO HOSPITAL AUTHORITY",
      "beds": 858,
      "type": "Acute Care Hospitals",
      "ownership": "Government - Hospital District or Authority",
      "lat": 39.7453,
      "lon": -104.8401,
      "govt_payer_share": 0.445,
      "medicare_discharges": 6697
    },
    {
      "facility_id": "060014",
      "name": "HCA HEALTHONE PRESBYTERIAN ST LUKES",
      "beds": 680,
      "type": "Acute Care Hospitals",
      "ownership": "Government - State",
      "lat": 39.7462,
      "lon": -104.9666,
      "govt_payer_share": 0.518,
      "medicare_discharges": 1278
    },
    {
      "facility_id": "060011",
      "name": "DENVER HEALTH & HOSPITAL AUTHORITY",
      "beds": 555,
      "type": "Acute Care Hospitals",
      "ownership": "Government - State",
      "lat": 39.7278,
      "lon": -104.9904,
      "govt_payer_share": 0.49,
      "medicare_discharges": 951
    },
    {
      "facility_id": "060032",
      "name": "HCA HEALTHONE ROSE",
      "beds": 422,
      "type": "Acute Care Hospitals",
      "ownership": "Proprietary",
      "lat": 39.7311,
      "lon": -104.9346,
      "govt_payer_share": 0.348,
      "medicare_discharges": 1342
    },
    {
      "facility_id": "060034",
      "name": "HCA-HEALTHONE DBA SWEDISH MEDICAL CENTER",
      "beds": 408,
      "type": "Acute Care Hospitals",
      "ownership": "Proprietary",
      "lat": 39.6532,
      "lon": -104.9817,
      "govt_payer_share": 0.443,
      "medicare_discharges": 3476
    },
    {
      "facility_id": "060028",
      "name": "SAINT JOSEPH HOSPITAL",
      "beds": 400,
      "type": "Acute Care Hospitals",
      "ownership": "Voluntary non-profit - Private",
      "lat": 39.7458,
      "lon": -104.971,
      "govt_payer_share": 0.365,
      "medicare_discharges": 1354
    },
    {
      "facility_id": "060064",
      "name": "AdventHealth Porter",
      "beds": 368,
      "type": "Acute Care Hospitals",
      "ownership": "Voluntary non-profit - Private",
      "lat": 39.6766,
      "lon": -104.9623,
      "govt_payer_share": 0.421,
      "medicare_discharges": 1464
    },
    {
      "facility_id": "060100",
      "name": "THE MEDICAL CENTER OF AURORA & SOUTH HOSPITAL",
      "beds": 346,
      "type": "Acute Care Hospitals",
      "ownership": "Proprietary",
      "lat": 39.6888,
      "lon": -104.8313,
      "govt_payer_share": 0.356,
      "medicare_discharges": 2721
    },
    {
      "facility_id": "060009",
      "name": "LUTHERAN MEDICAL CENTER",
      "beds": 338,
      "type": "Acute Care Hospitals",
      "ownership": "Voluntary non-profit - Private",
      "lat": 39.7693,
      "lon": -105.0883,
      "govt_payer_share": 0.397,
      "medicare_discharges": 1941
    },
    {
      "facility_id": "060112",
      "name": "SKY RIDGE MEDICAL CENTER",
      "beds": 304,
      "type": "Acute Care Hospitals",
      "ownership": "Voluntary non-profit - Other",
      "lat": 39.529,
      "lon": -104.8736,
      "govt_payer_share": 0.263,
      "medicare_discharges": 2540
    },
    {
      "facility_id": "060015",
      "name": "CENTURA HEALTH-ST ANTHONY HOSPITAL",
      "beds": 237,
      "type": "Acute Care Hospitals",
      "ownership": "Voluntary non-profit - Church",
      "lat": 39.6949,
      "lon": -105.1732,
      "govt_payer_share": 0.386,
      "medicare_discharges": 3192
    },
    {
      "facility_id": "060113",
      "name": "AdventHealth Littleton",
      "beds": 231,
      "type": "Acute Care Hospitals",
      "ownership": "Voluntary non-profit - Church",
      "lat": 39.5765,
      "lon": -104.9884,
      "govt_payer_share": 0.348,
      "medicare_discharges": 2163
    },
    {
      "facility_id": "060065",
      "name": "HCA HEALTHONE MOUNTAIN RIDGE",
      "beds": 157,
      "type": "Acute Care Hospitals",
      "ownership": "Voluntary non-profit - Private",
      "lat": 39.8638,
      "lon": -104.984,
      "govt_payer_share": 0.483,
      "medicare_discharges": 847
    },
    {
      "facility_id": "060104",
      "name": "CENTURA HEALTH-ST ANTHONY NORTH HEALTH CAMPUS",
      "beds": 121,
      "type": "Acute Care Hospitals",
      "ownership": "Voluntary non-profit - Private",
      "lat": 39.9575,
      "lon": -104.9811,
      "govt_payer_share": 0.402,
      "medicare_discharges": 1438
    },
    {
      "facility_id": "060114",
      "name": "AdventHealth Parker",
      "beds": 104,
      "type": "Acute Care Hospitals",
      "ownership": "Voluntary non-profit - Private",
      "lat": 39.5522,
      "lon": -104.7697,
      "govt_payer_share": 0.37,
      "medicare_discharges": 1735
    },
    {
      "facility_id": "060004",
      "name": "INTERMOUNTAIN HEALTH PLATTE VALLEY HOSPITAL",
      "beds": 98,
      "type": "Acute Care Hospitals",
      "ownership": "Voluntary non-profit - Private",
      "lat": 39.9649,
      "lon": -104.7709,
      "govt_payer_share": 0.468,
      "medicare_discharges": 438
    },
    {
      "facility_id": "060132",
      "name": "UCHEALTH HIGHLANDS RANCH HOSPITAL",
      "beds": 87,
      "type": "Acute Care Hospitals",
      "ownership": "Voluntary non-profit - Private",
      "lat": 39.5328,
      "lon": -104.9929,
      "govt_payer_share": 0.383,
      "medicare_discharges": 1765
    },
    {
      "facility_id": "060125",
      "name": "ADVENTHEALTH CASTLE ROCK",
      "beds": 50,
      "type": "Acute Care Hospitals",
      "ownership": "Voluntary non-profit - Private",
      "lat": 39.3723,
      "lon": -104.9121,
      "govt_payer_share": 0.357,
      "medicare_discharges": 830
    },
    {
      "facility_id": "060124",
      "name": "ORTHOCOLORADO HOSP AT ST ANTHONY MED CAMPUS",
      "beds": 48,
      "type": "Acute Care Hospitals",
      "ownership": "Proprietary",
      "lat": 39.6949,
      "lon": -105.1732,
      "govt_payer_share": 0.329,
      "medicare_discharges": 288
    },
    {
      "facility_id": "060107",
      "name": "NATIONAL JEWISH HEALTH",
      "beds": 46,
      "type": "Acute Care Hospitals",
      "ownership": "Voluntary non-profit - Private",
      "lat": 39.7304,
      "lon": -104.9525,
      "govt_payer_share": 0.718,
      "medicare_discharges": 23
    },
    {
      "facility_id": "060129",
      "name": "UCHEALTH BROOMFIELD HOSPITAL",
      "beds": 22,
      "type": "Acute Care Hospitals",
      "ownership": "Proprietary",
      "lat": 39.8907,
      "lon": -105.1137,
      "govt_payer_share": 0.565,
      "medicare_discharges": 111
    }
  ],
  "catchment_counties": [
    {
      "county_fips": "08031",
      "county_name": "Denver",
      "state": "CO",
      "pop_total": 710800,
      "pop_65_plus": 85267,
      "distance_to_hub_miles": 5.2
    },
    {
      "county_fips": "08005",
      "county_name": "Arapahoe",
      "state": "CO",
      "pop_total": 654453,
      "pop_65_plus": 89962,
      "distance_to_hub_miles": 32.7
    },
    {
      "county_fips": "08059",
      "county_name": "Jefferson",
      "state": "CO",
      "pop_total": 580519,
      "pop_65_plus": 99108,
      "distance_to_hub_miles": 18.2
    },
    {
      "county_fips": "08001",
      "county_name": "Adams",
      "state": "CO",
      "pop_total": 520149,
      "pop_65_plus": 56225,
      "distance_to_hub_miles": 34.3
    },
    {
      "county_fips": "08035",
      "county_name": "Douglas",
      "state": "CO",
      "pop_total": 360206,
      "pop_65_plus": 46602,
      "distance_to_hub_miles": 26.4
    },
    {
      "county_fips": "08039",
      "county_name": "Elbert",
      "state": "CO",
      "pop_total": 26457,
      "pop_65_plus": 4635,
      "distance_to_hub_miles": 52.3
    },
    {
      "county_fips": "08075",
      "county_name": "Logan",
      "state": "CO",
      "pop_total": 21302,
      "pop_65_plus": 3923,
      "distance_to_hub_miles": 119.6
    },
    {
      "county_fips": "08015",
      "county_name": "Chaffee",
      "state": "CO",
      "pop_total": 19564,
      "pop_65_plus": 5141,
      "distance_to_hub_miles": 94.2
    },
    {
      "county_fips": "08093",
      "county_name": "Park",
      "state": "CO",
      "pop_total": 17597,
      "pop_65_plus": 3863,
      "distance_to_hub_miles": 58.0
    },
    {
      "county_fips": "08049",
      "county_name": "Grand",
      "state": "CO",
      "pop_total": 15724,
      "pop_65_plus": 3036,
      "distance_to_hub_miles": 67.7
    },
    {
      "county_fips": "08019",
      "county_name": "Clear Creek",
      "state": "CO",
      "pop_total": 9403,
      "pop_65_plus": 1984,
      "distance_to_hub_miles": 37.0
    },
    {
      "county_fips": "08063",
      "county_name": "Kit Carson",
      "state": "CO",
      "pop_total": 7039,
      "pop_65_plus": 1409,
      "distance_to_hub_miles": 128.1
    },
    {
      "county_fips": "08047",
      "county_name": "Gilpin",
      "state": "CO",
      "pop_total": 5856,
      "pop_65_plus": 934,
      "distance_to_hub_miles": 32.1
    },
    {
      "county_fips": "08121",
      "county_name": "Washington",
      "state": "CO",
      "pop_total": 4817,
      "pop_65_plus": 1028,
      "distance_to_hub_miles": 94.4
    }
  ],
  "summary": {
    "total_beds": 5880,
    "catchment_pop": 2953886,
    "catchment_pop_65_plus": 403117,
    "catchment_pct_65_plus": 0.1365,
    "max_catchment_radius_miles": 128.1,
    "avg_catchment_distance_miles": 24.6,
    "num_counties": 14,
    "hospital_employment": 56981,
    "msa_total_employment": 1587879,
    "hospital_emp_share": 0.0193,
    "avg_govt_payer_share": 0.4193
  }
}