{
  "cbsa_code": "27140",
  "cbsa_name": "Jackson, MS",
  "mdi": 0.4603,
  "bbox": [
    -92.02,
    30.84,
    -87.97,
    34.13
  ],
  "hospitals": [
    {
      "facility_id": "250001",
      "name": "UNIVERSITY OF MISSISSIPPI MED CENTER",
      "beds": 710,
      "type": "Acute Care Hospitals",
      "ownership": "Government - State",
      "lat": 32.3287,
      "lon": -90.1755,
      "govt_payer_share": 0.65,
      "medicare_discharges": null
    },
    {
      "facility_id": "250102",
      "name": "MISSISSIPPI BAPTIST MEDICAL CENTER",
      "beds": 639,
      "type": "Acute Care Hospitals",
      "ownership": "Voluntary non-profit - Private",
      "lat": 32.315,
      "lon": -90.1785,
      "govt_payer_share": 0.65,
      "medicare_discharges": null
    },
    {
      "facility_id": "250048",
      "name": "ST DOMINIC-JACKSON MEMORIAL HOSPITAL",
      "beds": 571,
      "type": "Acute Care Hospitals",
      "ownership": "Voluntary non-profit - Church",
      "lat": 32.3337,
      "lon": -90.1668,
      "govt_payer_share": 0.65,
      "medicare_discharges": null
    },
    {
      "facility_id": "250072",
      "name": "MERIT HEALTH CENTRAL",
      "beds": 473,
      "type": "Acute Care Hospitals",
      "ownership": "Proprietary",
      "lat": 32.2869,
      "lon": -90.2552,
      "govt_payer_share": 0.65,
      "medicare_discharges": null
    },
    {
      "facility_id": "250096",
      "name": "CROSSGATES RIVER OAKS HOSPITAL",
      "beds": 134,
      "type": "Acute Care Hospitals",
      "ownership": "Proprietary",
      "lat": 32.1977,
      "lon": -89.8949,
      "govt_payer_share": 0.65,
      "medicare_discharges": null
    },
    {
      "facility_id": "250152",
      "name": "MISSISSIPPI METHODIST REHAB CTR",
      "beds": 124,
      "type": "Acute Care Hospitals",
      "ownership": "Voluntary non-profit - Private",
      "lat": 32.3352,
      "lon": -90.1614,
      "govt_payer_share": 0.65,
      "medicare_discharges": null
    },
    {
      "facility_id": "250136",
      "name": "MERIT HEALTH WOMEN'S HOSPITAL",
      "beds": 109,
      "type": "Acute Care Hospitals",
      "ownership": "Proprietary",
      "lat": 32.337,
      "lon": -90.0859,
      "govt_payer_share": 0.65,
      "medicare_discharges": null
    },
    {
      "facility_id": "250138",
      "name": "MERIT HEALTH RIVER OAKS",
      "beds": 106,
      "type": "Acute Care Hospitals",
      "ownership": "Proprietary",
      "lat": 32.3297,
      "lon": -90.1075,
      "govt_payer_share": 0.65,
      "medicare_discharges": null
    },
    {
      "facility_id": "250038",
      "name": "MERIT HEALTH MADISON",
      "beds": 67,
      "type": "Acute Care Hospitals",
      "ownership": "Proprietary",
      "lat": 32.6296,
      "lon": -89.9935,
      "govt_payer_share": 0.65,
      "medicare_discharges": null
    },
    {
      "facility_id": "250124",
      "name": "MAGEE GENERAL HOSPITAL",
      "beds": 64,
      "type": "Acute Care Hospitals",
      "ownership": "Voluntary non-profit - Private",
      "lat": 31.8966,
      "lon": -89.7181,
      "govt_payer_share": 0.65,
      "medicare_discharges": null
    },
    {
      "facility_id": "250134",
      "name": "WHITFIELD MEDICAL SURGICAL HOSPITAL",
      "beds": 43,
      "type": "Acute Care Hospitals",
      "ownership": "Government - State",
      "lat": 32.2435,
      "lon": -90.0699,
      "govt_payer_share": 0.65,
      "medicare_discharges": null
    },
    {
      "facility_id": "251300",
      "name": "S E LACKEY MEMORIAL HOSPITAL",
      "beds": 35,
      "type": "Critical Access Hospitals",
      "ownership": "Voluntary non-profit - Private",
      "lat": 32.386,
      "lon": -89.4673,
      "govt_payer_share": 0.75,
      "medicare_discharges": null
    },
    {
      "facility_id": "251313",
      "name": "BAPTIST MEDICAL CENTER-YAZOO",
      "beds": 35,
      "type": "Critical Access Hospitals",
      "ownership": "Voluntary non-profit - Private",
      "lat": 32.843,
      "lon": -90.5151,
      "govt_payer_share": 0.75,
      "medicare_discharges": null
    },
    {
      "facility_id": "251317",
      "name": "SIMPSON GENERAL HOSPITAL CAH",
      "beds": 35,
      "type": "Critical Access Hospitals",
      "ownership": "Voluntary non-profit - Private",
      "lat": 31.9518,
      "lon": -89.8246,
      "govt_payer_share": 0.75,
      "medicare_discharges": null
    },
    {
      "facility_id": "251327",
      "name": "COPIAH COUNTY MEDICAL CENTER",
      "beds": 35,
      "type": "Critical Access Hospitals",
      "ownership": "Government - Local",
      "lat": 31.8353,
      "lon": -90.4673,
      "govt_payer_share": 0.75,
      "medicare_discharges": null
    },
    {
      "facility_id": "251323",
      "name": "OCHSNER SCOTT REGIONAL",
      "beds": 30,
      "type": "Critical Access Hospitals",
      "ownership": "Voluntary non-profit - Private",
      "lat": 32.3096,
      "lon": -89.665,
      "govt_payer_share": 0.75,
      "medicare_discharges": null
    },
    {
      "facility_id": "251319",
      "name": "HOLMES COUNTY HOSPITAL AND CLINICS",
      "beds": 25,
      "type": "Critical Access Hospitals",
      "ownership": "Government - State",
      "lat": 33.1319,
      "lon": -90.1172,
      "govt_payer_share": 0.75,
      "medicare_discharges": null
    }
  ],
  "catchment_counties": [
    {
      "county_fips": "28049",
      "county_name": "Hinds",
      "state": "MS",
      "pop_total": 226541,
      "pop_65_plus": 34512,
      "distance_to_hub_miles": 17.7
    },
    {
      "county_fips": "28121",
      "county_name": "Rankin",
      "state": "MS",
      "pop_total": 157185,
      "pop_65_plus": 25230,
      "distance_to_hub_miles": 12.2
    },
    {
      "county_fips": "28089",
      "county_name": "Madison",
      "state": "MS",
      "pop_total": 109257,
      "pop_65_plus": 15824,
      "distance_to_hub_miles": 23.0
    },
    {
      "county_fips": "28123",
      "county_name": "Scott",
      "state": "MS",
      "pop_total": 27943,
      "pop_65_plus": 4504,
      "distance_to_hub_miles": 36.0
    },
    {
      "county_fips": "28163",
      "county_name": "Yazoo",
      "state": "MS",
      "pop_total": 27467,
      "pop_65_plus": 3635,
      "distance_to_hub_miles": 35.3
    },
    {
      "county_fips": "28127",
      "county_name": "Simpson",
      "state": "MS",
      "pop_total": 25889,
      "pop_65_plus": 4708,
      "distance_to_hub_miles": 30.8
    },
    {
      "county_fips": "28079",
      "county_name": "Leake",
      "state": "MS",
      "pop_total": 21335,
      "pop_65_plus": 3737,
      "distance_to_hub_miles": 47.2
    },
    {
      "county_fips": "28007",
      "county_name": "Attala",
      "state": "MS",
      "pop_total": 17842,
      "pop_65_plus": 3426,
      "distance_to_hub_miles": 62.5
    },
    {
      "county_fips": "28129",
      "county_name": "Smith",
      "state": "MS",
      "pop_total": 14310,
      "pop_65_plus": 2908,
      "distance_to_hub_miles": 42.7
    }
  ],
  "summary": {
    "total_beds": 3235,
    "catchment_pop": 627769,
    "catchment_pop_65_plus": 98484,
    "catchment_pct_65_plus": 0.1569,
    "max_catchment_radius_miles": 62.5,
    "avg_catchment_distance_miles": 22.2,
    "num_counties": 9,
    "hospital_employment": 16203,
    "msa_total_employment": 271587,
    "hospital_emp_share": 0.0597,
    "avg_govt_payer_share": 0.656
  }
}