{
  "cbsa_code": "29180",
  "cbsa_name": "Lafayette, LA",
  "mdi": 0.3597,
  "bbox": [
    -93.92,
    28.79,
    -90.29,
    31.41
  ],
  "hospitals": [
    {
      "facility_id": "190002",
      "name": "OCHSNER LAFAYETTE GENERAL MEDICAL CENTER",
      "beds": 526,
      "type": "Acute Care Hospitals",
      "ownership": "Voluntary non-profit - Private",
      "lat": 30.2025,
      "lon": -92.0186,
      "govt_payer_share": 0.65,
      "medicare_discharges": null
    },
    {
      "facility_id": "190102",
      "name": "OUR LADY OF LOURDES REGIONAL MEDICAL CENTER, INC",
      "beds": 354,
      "type": "Acute Care Hospitals",
      "ownership": "Voluntary non-profit - Private",
      "lat": 30.1479,
      "lon": -92.0365,
      "govt_payer_share": 0.65,
      "medicare_discharges": null
    },
    {
      "facility_id": "190006",
      "name": "OCHSNER UNIVERSITY HOSPITAL AND CLINICS",
      "beds": 116,
      "type": "Acute Care Hospitals",
      "ownership": "Voluntary non-profit - Private",
      "lat": 30.1958,
      "lon": -92.0808,
      "govt_payer_share": 0.65,
      "medicare_discharges": null
    },
    {
      "facility_id": "190044",
      "name": "ACADIA GENERAL HOSPITAL",
      "beds": 113,
      "type": "Acute Care Hospitals",
      "ownership": "Voluntary non-profit - Private",
      "lat": 30.2105,
      "lon": -92.3789,
      "govt_payer_share": 0.65,
      "medicare_discharges": null
    },
    {
      "facility_id": "190034",
      "name": "ABBEVILLE GENERAL HOSPITAL",
      "beds": 60,
      "type": "Acute Care Hospitals",
      "ownership": "Government - Hospital District or Authority",
      "lat": 29.9733,
      "lon": -92.1071,
      "govt_payer_share": 0.65,
      "medicare_discharges": null
    },
    {
      "facility_id": "191322",
      "name": "ABROM KAPLAN MEMORIAL HOSPITAL",
      "beds": 35,
      "type": "Critical Access Hospitals",
      "ownership": "Voluntary non-profit - Private",
      "lat": 29.7905,
      "lon": -92.4205,
      "govt_payer_share": 0.75,
      "medicare_discharges": null
    },
    {
      "facility_id": "191319",
      "name": "ACADIA ST LANDRY",
      "beds": 33,
      "type": "Critical Access Hospitals",
      "ownership": "Government - Hospital District or Authority",
      "lat": 30.4081,
      "lon": -92.2173,
      "govt_payer_share": 0.75,
      "medicare_discharges": null
    },
    {
      "facility_id": "191302",
      "name": "OCHSNER ST MARTIN HOSPITAL",
      "beds": 25,
      "type": "Critical Access Hospitals",
      "ownership": "Voluntary non-profit - Private",
      "lat": 30.2908,
      "lon": -91.7864,
      "govt_payer_share": 0.75,
      "medicare_discharges": null
    },
    {
      "facility_id": "190259",
      "name": "LAFAYETTE SURGICAL SPECIALTY HOSPITAL",
      "beds": 20,
      "type": "Acute Care Hospitals",
      "ownership": "Physician",
      "lat": 30.1552,
      "lon": -92.0282,
      "govt_payer_share": 0.65,
      "medicare_discharges": null
    },
    {
      "facility_id": "190255",
      "name": "PARK PLACE SURGICAL HOSPITAL",
      "beds": 10,
      "type": "Acute Care Hospitals",
      "ownership": "Physician",
      "lat": 30.1552,
      "lon": -92.0282,
      "govt_payer_share": 0.65,
      "medicare_discharges": null
    }
  ],
  "catchment_counties": [
    {
      "county_fips": "22055",
      "county_name": "Lafayette",
      "state": "LA",
      "pop_total": 243175,
      "pop_65_plus": 34063,
      "distance_to_hub_miles": 2.5
    },
    {
      "county_fips": "22001",
      "county_name": "Acadia",
      "state": "LA",
      "pop_total": 57674,
      "pop_65_plus": 9048,
      "distance_to_hub_miles": 21.6
    },
    {
      "county_fips": "22113",
      "county_name": "Vermilion",
      "state": "LA",
      "pop_total": 57202,
      "pop_65_plus": 9120,
      "distance_to_hub_miles": 28.6
    },
    {
      "county_fips": "22047",
      "county_name": "Iberville",
      "state": "LA",
      "pop_total": 30210,
      "pop_65_plus": 5055,
      "distance_to_hub_miles": 43.9
    }
  ],
  "summary": {
    "total_beds": 1292,
    "catchment_pop": 388261,
    "catchment_pop_65_plus": 57286,
    "catchment_pct_65_plus": 0.1475,
    "max_catchment_radius_miles": 43.9,
    "avg_catchment_distance_miles": 12.4,
    "num_counties": 4,
    "hospital_employment": 8083,
    "msa_total_employment": 173395,
    "hospital_emp_share": 0.0466,
    "avg_govt_payer_share": 0.6572
  }
}